[
  {
    "title": "Modernes Appartement in zentraler Lage",
    "price_cold": 450.0,
    "price_warm": 530.0,
    "qm": 24.0,
    "price_per_qm": 18.75,
    "rooms": "1",
    "street": "H 1 12+13,",
    "city": "Innenstadt/Jungbusch, 68159 Mannheim",
    "latitude": "",
    "longlitude": ""
  },
  {
    "title": "Wunderschöne und hochwertige 3-Zimmer-Penthouse Wohnung in Mannheim",
    "price_cold": 1785.0,
    "price_warm": 2190.0,
    "qm": 115.69,
    "price_per_qm": 15.43,
    "rooms": "3",
    "street": "Leonie-Ossowski-Promenade 15,",
    "city": "Käfertal, 68309 Mannheim",
    "latitude": 49.5031062,
    "longlitude": 8.5189432
  },
  {
    "title": "25m² - Vollmöbliertes Apartment in Uninähe",
    "price_cold": 580.0,
    "price_warm": 750.0,
    "qm": 25.0,
    "price_per_qm": 23.2,
    "rooms": "1",
    "street": "Seckenheimerstraße 68a,",
    "city": "Schwetzingerstadt/Oststadt, 68165 Mannheim",
    "latitude": 49.4789407,
    "longlitude": 8.4816894
  },
  {
    "title": "32m² - Vollmöbliertes Apartment in Uninähe",
    "price_cold": 720.0,
    "price_warm": 890.0,
    "qm": 32.0,
    "price_per_qm": 22.5,
    "rooms": "1",
    "street": "Seckenheimer Straße 68a,",
    "city": "Schwetzingerstadt/Oststadt, 68165 Mannheim",
    "latitude": 49.4789407,
    "longlitude": 8.4816894
  },
  {
    "title": "42m² - Vollmöbliertes Apartment mit eigener Terrasse",
    "price_cold": 900.0,
    "price_warm": 1070.0,
    "qm": 42.0,
    "price_per_qm": 21.43,
    "rooms": "1",
    "street": "Seckenheimer Straße 68a,",
    "city": "Schwetzingerstadt/Oststadt, 68165 Mannheim",
    "latitude": 49.4789407,
    "longlitude": 8.4816894
  },
  {
    "title": "2 Monat mietfrei! Zimmer für Studenten und Azubis - Vollmöbliert mit Internetflat zum 01.08.2025",
    "price_cold": 445.0,
    "price_warm": 550.0,
    "qm": 20.96,
    "price_per_qm": 21.23,
    "rooms": "1",
    "street": "Birkenauer Str. 49,",
    "city": "Käfertal, 68309 Mannheim",
    "latitude": 49.5149808,
    "longlitude": 8.5286457
  },
  {
    "title": "Privat - Gepflegte Wohnung mit zwei Zimmern und EBK in Mannheim",
    "price_cold": 580.0,
    "price_warm": 850.0,
    "qm": 58.0,
    "price_per_qm": 10.0,
    "rooms": "2",
    "street": "Bürgermeister-strasse 86,",
    "city": "Neckarstadt-West, 68169 Mannheim",
    "latitude": 49.5038247,
    "longlitude": 8.467907
  },
  {
    "title": "Urbaner Lifestyle & Naturidyll in bester Harmonie – Exklusive Penthouse-Maisonette im grünen Quadrat",
    "price_cold": 2150.0,
    "price_warm": 2650.0,
    "qm": 133.0,
    "price_per_qm": 16.17,
    "rooms": "4",
    "street": "",
    "city": "Innenstadt/Jungbusch, 68159 Mannheim",
    "latitude": "",
    "longlitude": ""
  },
  {
    "title": "3-Zimmer-Wohnung mit Balkon und Neckarblick an der Neckarpromenade",
    "price_cold": 1067.0,
    "price_warm": 1427.0,
    "qm": 83.0,
    "price_per_qm": 12.86,
    "rooms": "3",
    "street": "Neckarpromenade 25,",
    "city": "Neckarstadt-Ost/Wohlgelegen, 68167 Mannheim",
    "latitude": 49.4945814,
    "longlitude": 8.4776041
  },
  {
    "title": "1-Zimmer, Küche- Apartment in den Quadraten Nähe Wasserturm",
    "price_cold": 680.0,
    "price_warm": 780.0,
    "qm": 33.0,
    "price_per_qm": 20.61,
    "rooms": "1",
    "street": "T6, 33,",
    "city": "Innenstadt/Jungbusch, 68161 Mannheim",
    "latitude": 49.4885031,
    "longlitude": 8.4745453
  },
  {
    "title": "3,5ZKBB in zentraler Lage. Nähe Hbf.",
    "price_cold": 1100.0,
    "price_warm": 1380.0,
    "qm": 94.0,
    "price_per_qm": 11.7,
    "rooms": "3,5",
    "street": "Kaiserring 34,",
    "city": "Schwetzingerstadt/Oststadt, 68161 Mannheim",
    "latitude": 49.4822873,
    "longlitude": 8.4730219
  },
  {
    "title": "Erstbezug nach Sanierung 1 Zimmer- Altbauwohnung mit Balkon zu vermieten ! www.immo-kraemer.de",
    "price_cold": 510.0,
    "price_warm": 660.0,
    "qm": 42.0,
    "price_per_qm": 12.14,
    "rooms": "1",
    "street": "",
    "city": "Schwetzingerstadt/Oststadt, 68165 Mannheim",
    "latitude": "",
    "longlitude": ""
  },
  {
    "title": "Große Wohnung mit dem ganz bestimmten Charm in der Neckarstadt-West!",
    "price_cold": 1420.0,
    "price_warm": 0.0,
    "qm": 120.0,
    "price_per_qm": 11.83,
    "rooms": "5",
    "street": "",
    "city": "Neckarstadt-West, 68169 Mannheim",
    "latitude": "",
    "longlitude": ""
  },
  {
    "title": "Feudenheim: ca. 174 m² Wohnfläche auf einer Ebene!",
    "price_cold": 1950.0,
    "price_warm": 2250.0,
    "qm": 174.0,
    "price_per_qm": 11.21,
    "rooms": "4,5",
    "street": "",
    "city": "Feudenheim, 68259 Mannheim",
    "latitude": "",
    "longlitude": ""
  },
  {
    "title": "Schöne 1ZKB ab sofort zu vermieten!",
    "price_cold": 360.0,
    "price_warm": 540.0,
    "qm": 26.0,
    "price_per_qm": 13.85,
    "rooms": "1",
    "street": "Laurentiusstr. 19-21,",
    "city": "Neckarstadt-West, 68167 Mannheim",
    "latitude": 49.4983679,
    "longlitude": 8.4711834
  },
  {
    "title": "Moderne 3-Zimmer-Wohnung in Mannheim",
    "price_cold": 1150.0,
    "price_warm": 1350.0,
    "qm": 78.0,
    "price_per_qm": 14.74,
    "rooms": "3",
    "street": "Beilstraße 23,",
    "city": "Innenstadt/Jungbusch, 68159 Mannheim",
    "latitude": 49.4948799,
    "longlitude": 8.4596438
  },
  {
    "title": "Erdgeschosswohnung in Neckarstadt-Ost! 2 ZKB mit EBK!",
    "price_cold": 750.0,
    "price_warm": 950.0,
    "qm": 74.73,
    "price_per_qm": 10.04,
    "rooms": "2",
    "street": "Käfertaler Straße 41,",
    "city": "Neckarstadt-Ost/Wohlgelegen, 68167 Mannheim",
    "latitude": 49.4952817,
    "longlitude": 8.4793304
  },
  {
    "title": "Lichtdurchflutete Single-Dachgeschosswohnung mit Dachloggia",
    "price_cold": 700.0,
    "price_warm": 890.0,
    "qm": 68.0,
    "price_per_qm": 10.29,
    "rooms": "2",
    "street": "",
    "city": "Neckarstadt-Ost/Wohlgelegen, 68167 Mannheim",
    "latitude": "",
    "longlitude": ""
  },
  {
    "title": "Modernisierte 3-Zimmer-Wohnung mit Balkon und EBK in Mannheim",
    "price_cold": 1050.0,
    "price_warm": 1230.0,
    "qm": 115.0,
    "price_per_qm": 9.13,
    "rooms": "3",
    "street": "Relaisstraße 211,",
    "city": "Rheinau, 68219 Mannheim",
    "latitude": 49.4245777,
    "longlitude": 8.5351014
  },
  {
    "title": "Helle 3-Zimmer-Wohnung mit 2 Balkonen, Einbauküche – 75 m² in Mannheim-Neckarau",
    "price_cold": 915.0,
    "price_warm": 1075.0,
    "qm": 75.0,
    "price_per_qm": 12.2,
    "rooms": "3",
    "street": "",
    "city": "Neckarau, 68199 Mannheim",
    "latitude": "",
    "longlitude": ""
  },
  {
    "title": "Schöne, helle, 4-Zimmer Wohnung mit Küchenzeile und Balkon in Mannheim, Käfertal",
    "price_cold": 850.0,
    "price_warm": 1100.0,
    "qm": 98.0,
    "price_per_qm": 8.67,
    "rooms": "4",
    "street": "",
    "city": "Käfertal, 68309 Mannheim",
    "latitude": "",
    "longlitude": ""
  },
  {
    "title": "WG-Zimmer im Jungbusch",
    "price_cold": 422.0,
    "price_warm": 506.0,
    "qm": 21.0,
    "price_per_qm": 20.1,
    "rooms": "1",
    "street": "Luisenring 23,",
    "city": "Innenstadt/Jungbusch, 68159 Mannheim",
    "latitude": 49.4929115,
    "longlitude": 8.4595938
  },
  {
    "title": "Schöne helle WG-Zimmer in Neckarstadt-West zu vermieten",
    "price_cold": 500.0,
    "price_warm": 625.0,
    "qm": 62.0,
    "price_per_qm": 8.06,
    "rooms": "3",
    "street": "Erlenstraße 25,",
    "city": "Neckarstadt-West, 68169 Mannheim",
    "latitude": 49.5044584,
    "longlitude": 8.4682107
  },
  {
    "title": "Wunderschöne Garten-Wohnung mit gehobener Ausstattung, Einbauküche & Stellplatz in MA-Niederfeld",
    "price_cold": 1350.0,
    "price_warm": 1500.0,
    "qm": 90.0,
    "price_per_qm": 15.0,
    "rooms": "2",
    "street": "Wolframstraße 9,",
    "city": "Neckarau, 68199 Mannheim",
    "latitude": 49.4543766,
    "longlitude": 8.4788269
  },
  {
    "title": "1-Zimmer-Wohnung in Mannheim",
    "price_cold": 500.0,
    "price_warm": 590.0,
    "qm": 24.0,
    "price_per_qm": 20.83,
    "rooms": "1",
    "street": "S 3 8,",
    "city": "Innenstadt/Jungbusch, 68161 Mannheim",
    "latitude": "",
    "longlitude": ""
  },
  {
    "title": "** TOP - Wohnung ** 3 ZKB-Wohnung Mhm-Quadrate (K3) ** ... mit Blick ins Grüne :) !!!",
    "price_cold": 1230.0,
    "price_warm": 1470.0,
    "qm": 92.0,
    "price_per_qm": 13.37,
    "rooms": "3",
    "street": "K 3 16,",
    "city": "Innenstadt/Jungbusch, 68159 Mannheim",
    "latitude": "",
    "longlitude": ""
  },
  {
    "title": "4-Zimmer-Wohnung mit Balkon in Mannheim-Feudenheim – Frei ab 01.09.2025",
    "price_cold": 850.0,
    "price_warm": 1200.0,
    "qm": 98.0,
    "price_per_qm": 8.67,
    "rooms": "4",
    "street": "",
    "city": "Feudenheim, 68259 Mannheim",
    "latitude": "",
    "longlitude": ""
  },
  {
    "title": "2-Zimmer-Penthouse-Wohnung mit luxuriöser Innenausstattung mit EBK in Mannheim",
    "price_cold": 1600.0,
    "price_warm": 1800.0,
    "qm": 60.0,
    "price_per_qm": 26.67,
    "rooms": "2",
    "street": "U3 16,",
    "city": "Innenstadt/Jungbusch, 68161 Mannheim",
    "latitude": 49.4922029,
    "longlitude": 8.4726859
  },
  {
    "title": "Modernisierte 2-Raum-Wohnung mit Terrasse in Mannheim-Seckenheim",
    "price_cold": 620.0,
    "price_warm": 770.0,
    "qm": 55.0,
    "price_per_qm": 11.27,
    "rooms": "2",
    "street": "",
    "city": "Seckenheim, 68239 Mannheim",
    "latitude": "",
    "longlitude": ""
  },
  {
    "title": "Helles, ruhiges 1 Zimmer Apartment",
    "price_cold": 360.0,
    "price_warm": 530.0,
    "qm": 26.0,
    "price_per_qm": 13.85,
    "rooms": "1",
    "street": "Werderstraße 27,",
    "city": "Schwetzingerstadt/Oststadt, 68165 Mannheim",
    "latitude": 49.4831394,
    "longlitude": 8.4799158
  },
  {
    "title": "Modernes, helles & gepflegtes 1 ZKB Appartement mit Pantryküche in Mannheim - Schwetzingerstadt",
    "price_cold": 390.0,
    "price_warm": 540.0,
    "qm": 29.0,
    "price_per_qm": 13.45,
    "rooms": "1",
    "street": "",
    "city": "Schwetzingerstadt/Oststadt, 68165 Mannheim",
    "latitude": "",
    "longlitude": ""
  },
  {
    "title": "Ideales Domizil für ein ruhesuchendes Paar – Gepflegte und moderne Wohneinheit in Waldrandlage",
    "price_cold": 1150.0,
    "price_warm": 1650.0,
    "qm": 92.0,
    "price_per_qm": 12.5,
    "rooms": "3,5",
    "street": "",
    "city": "Waldhof, 68305 Mannheim",
    "latitude": "",
    "longlitude": ""
  },
  {
    "title": "*** Neu trifft Altbauflair *** 2-Zimmer-Schmuckstück im Herzen der Stadt",
    "price_cold": 1205.0,
    "price_warm": 1490.0,
    "qm": 90.0,
    "price_per_qm": 13.39,
    "rooms": "2",
    "street": "",
    "city": "Schwetzingerstadt/Oststadt, 68161 Mannheim",
    "latitude": "",
    "longlitude": ""
  },
  {
    "title": "Großzügige 5-Zi-Wohnung in erstklassiger Wohnlage zwischen Luisenpark und Neckar",
    "price_cold": 2000.0,
    "price_warm": 2480.0,
    "qm": 156.0,
    "price_per_qm": 12.82,
    "rooms": "5",
    "street": "",
    "city": "Schwetzingerstadt/Oststadt, 68165 Mannheim",
    "latitude": "",
    "longlitude": ""
  },
  {
    "title": "Moderne 3-Zimmer-Wohnung mit Aufzug in Toplage von Mannheim-Lindenhof!",
    "price_cold": 1000.0,
    "price_warm": 1300.0,
    "qm": 74.0,
    "price_per_qm": 13.51,
    "rooms": "3",
    "street": "",
    "city": "Lindenhof, 68163 Mannheim",
    "latitude": "",
    "longlitude": ""
  },
  {
    "title": "*Umzugsbonus* 3-Zimmer-Wohnung mit Einbauküche",
    "price_cold": 1377.55,
    "price_warm": 1722.55,
    "qm": 88.4,
    "price_per_qm": 15.58,
    "rooms": "3",
    "street": "George-Sullivan-Ring 46,",
    "city": "Käfertal, 68309 Mannheim",
    "latitude": 49.5236978,
    "longlitude": 8.5358809
  },
  {
    "title": "7 Monate Zwischenmiete: Helle 2-Zimmer-Wohnung in zentraler Lage",
    "price_cold": 940.0,
    "price_warm": 1100.0,
    "qm": 65.0,
    "price_per_qm": 14.46,
    "rooms": "2",
    "street": "",
    "city": "Schwetzingerstadt/Oststadt, 68165 Mannheim",
    "latitude": "",
    "longlitude": ""
  },
  {
    "title": "Renovierte Altbauwohnung in Neckarstadt/Ost zu vermieten",
    "price_cold": 1380.0,
    "price_warm": 1680.0,
    "qm": 90.0,
    "price_per_qm": 15.33,
    "rooms": "3,5",
    "street": "",
    "city": "Neckarstadt-Ost/Wohlgelegen, 68167 Mannheim",
    "latitude": "",
    "longlitude": ""
  },
  {
    "title": "Bgm-Fuchs-Straße 86, 68169 Mannheim",
    "price_cold": 580.0,
    "price_warm": 850.0,
    "qm": 58.0,
    "price_per_qm": 10.0,
    "rooms": "2",
    "street": "Bgm-Fuchs-Straße 86,",
    "city": "Neckarstadt-West, 68169 Mannheim",
    "latitude": 49.5038247,
    "longlitude": 8.467907
  },
  {
    "title": "Gemütliche 2-Zimmer-Wohnung mit Balkon und Einbauküche in Mannheim-Wallstadt",
    "price_cold": 750.0,
    "price_warm": 930.0,
    "qm": 65.0,
    "price_per_qm": 11.54,
    "rooms": "2",
    "street": "",
    "city": "Wallstadt, 68259 Mannheim",
    "latitude": "",
    "longlitude": ""
  },
  {
    "title": "Schöne 3-Zimmer-Wohnung mit gehobener Innenausstattung mit Balkon in Mannheim",
    "price_cold": 850.0,
    "price_warm": 990.0,
    "qm": 80.0,
    "price_per_qm": 10.62,
    "rooms": "3",
    "street": "Relaisstr. 211 211,",
    "city": "Rheinau, 68219 Mannheim",
    "latitude": 49.4383761,
    "longlitude": 8.5235927
  },
  {
    "title": "3 Zimmer-Wohnung mit Balkon",
    "price_cold": 1150.0,
    "price_warm": 1400.0,
    "qm": 90.0,
    "price_per_qm": 12.78,
    "rooms": "3",
    "street": "Fred-Joachim-Schoeps-STr. 13,",
    "city": "Friedrichsfeld, 68229 Mannheim",
    "latitude": 49.4430093,
    "longlitude": 8.5806532
  },
  {
    "title": "Stilvolle, neuwertige 2-Zimmer-Wohnung in der Quadrate Mannheim",
    "price_cold": 900.0,
    "price_warm": 1100.0,
    "qm": 50.0,
    "price_per_qm": 18.0,
    "rooms": "2",
    "street": "T 6 33,",
    "city": "Innenstadt/Jungbusch, 68161 Mannheim",
    "latitude": "",
    "longlitude": ""
  },
  {
    "title": "Helle und gut gelegene 2-Zimmer-Wohnung mit Balkon, Einbauküche und Klimaanlage in Wohlgelegen",
    "price_cold": 820.0,
    "price_warm": 1020.0,
    "qm": 60.0,
    "price_per_qm": 13.67,
    "rooms": "2",
    "street": "Nebeniusstraße 12,",
    "city": "Neckarstadt-Ost/Wohlgelegen, 68167 Mannheim",
    "latitude": 49.4980259,
    "longlitude": 8.4911446
  },
  {
    "title": "Eine der schönsten Altbauwohnungen Mannheims– 255 m² Wohngenuss mit Stil, Substanz & Seltenheitswert",
    "price_cold": 3300.0,
    "price_warm": 3785.0,
    "qm": 255.0,
    "price_per_qm": 12.94,
    "rooms": "6",
    "street": "",
    "city": "Innenstadt/Jungbusch, 68159 Mannheim",
    "latitude": "",
    "longlitude": ""
  },
  {
    "title": "Erstbezug! Moderne Wohnung mit Wintergarten, Gartennutzung und Arbeitszimmer",
    "price_cold": 1350.0,
    "price_warm": 0.0,
    "qm": 100.0,
    "price_per_qm": 13.5,
    "rooms": "2,5",
    "street": "",
    "city": "Käfertal, 68305 Mannheim",
    "latitude": "",
    "longlitude": ""
  },
  {
    "title": "Großzügige Wohnung mit 2 Balkonen, Fahrstuhl und EBK",
    "price_cold": 860.0,
    "price_warm": 0.0,
    "qm": 78.0,
    "price_per_qm": 11.03,
    "rooms": "2",
    "street": "",
    "city": "Innenstadt/Jungbusch, 68159 Mannheim",
    "latitude": "",
    "longlitude": ""
  },
  {
    "title": "Frisch Renoviert! Schöne 2-Zimmer-Wohnung wartet auf neuen Mieter!",
    "price_cold": 653.0,
    "price_warm": 904.0,
    "qm": 58.29,
    "price_per_qm": 11.2,
    "rooms": "2",
    "street": "Geraer Ring 2,",
    "city": "Vogelstang, 68309 Mannheim",
    "latitude": 49.510271,
    "longlitude": 8.5373441
  },
  {
    "title": "Tauschwohnung: Tausch zentrale Wohnung mit Ausblick gegen Wohnung Berlin",
    "price_cold": 870.0,
    "price_warm": 0.0,
    "qm": 78.0,
    "price_per_qm": 11.15,
    "rooms": "3",
    "street": "Neckarpromenade 15,",
    "city": "Neckarstadt-Ost/Wohlgelegen, 68167 Mannheim",
    "latitude": 49.4949612,
    "longlitude": 8.476335
  },
  {
    "title": "*Gemütliche Wohnung über den Dächern der Stadt, MA-Oststadt*",
    "price_cold": 540.0,
    "price_warm": 690.0,
    "qm": 40.0,
    "price_per_qm": 13.5,
    "rooms": "1",
    "street": "Collinistrasse 18,",
    "city": "Schwetzingerstadt/Oststadt, 68161 Mannheim",
    "latitude": 49.4901269,
    "longlitude": 8.4773249
  },
  {
    "title": "Helle und ruhige 2-Zimmer-Wohnung mit Balkon",
    "price_cold": 620.0,
    "price_warm": 800.0,
    "qm": 62.0,
    "price_per_qm": 10.0,
    "rooms": "2",
    "street": "Hardenburgstr. 1,",
    "city": "Rheinau, 68219 Mannheim",
    "latitude": 49.4461141,
    "longlitude": 8.5203315
  },
  {
    "title": "Carl-Benz-Straße 128, 68167 Mannheim",
    "price_cold": 670.0,
    "price_warm": 870.0,
    "qm": 31.0,
    "price_per_qm": 21.61,
    "rooms": "1",
    "street": "Carl-Benz-Straße 128,",
    "city": "Neckarstadt-Ost/Wohlgelegen, 68167 Mannheim",
    "latitude": 49.4981675,
    "longlitude": 8.4879242
  },
  {
    "title": "Frisch sanierte und möblierte 1-Zimmer-Wohnung mit Einbauküche in Mannheim",
    "price_cold": 430.0,
    "price_warm": 600.0,
    "qm": 20.0,
    "price_per_qm": 21.5,
    "rooms": "1",
    "street": "L2 5-10,",
    "city": "Innenstadt/Jungbusch, 68161 Mannheim",
    "latitude": 49.4845123,
    "longlitude": 8.4652793
  },
  {
    "title": "Zentrale gelegene 2,5-Zimmer-Wohnung (EG) in Mannheim zu vermieten",
    "price_cold": 950.0,
    "price_warm": 1050.0,
    "qm": 60.0,
    "price_per_qm": 15.83,
    "rooms": "2,5",
    "street": "",
    "city": "Neckarstadt-West, 68169 Mannheim",
    "latitude": "",
    "longlitude": ""
  },
  {
    "title": "Sehr gepflegte 2,5-Zimmerwohnung mit Dachloggia & TG-Stellplatz!",
    "price_cold": 880.0,
    "price_warm": 1200.0,
    "qm": 64.0,
    "price_per_qm": 13.75,
    "rooms": "2,5",
    "street": "",
    "city": "Innenstadt/Jungbusch, 68161 Mannheim",
    "latitude": "",
    "longlitude": ""
  },
  {
    "title": "Möbliertes 1-Zimmer-Studio in den Mannheimer Quadraten!",
    "price_cold": 490.0,
    "price_warm": 620.0,
    "qm": 19.28,
    "price_per_qm": 25.41,
    "rooms": "1",
    "street": "",
    "city": "Innenstadt/Jungbusch, 68159 Mannheim",
    "latitude": "",
    "longlitude": ""
  }
]
